@id,@lon,@lat,name,website
21015347,15.4323850,47.0298732,Puntigamer Brauhaus,
21306981,15.4782858,47.0514201,Kings Wok,
26412910,15.4710757,47.0308197,Venier's,http://www.veniers.com
26899232,15.4482614,47.0756757,Propeller,http://www.propeller.co.at/
31622693,15.4557529,47.0468523,Hooters,
31622762,15.4617155,47.0381370,Römerstube,
31622775,15.4696412,47.0594344,Cuba,http://www.cafe-bar-cuba.at
31622878,15.4800526,47.0502833,San Pedro,http://www.sanpietro.at
31625408,15.4605827,47.0678349,Philipp,http://www.konditorei-philipp.at
31625430,15.4377900,47.0669485,Gösser Bräu,http://www.goesserbraeugraz.at
36790855,15.4266559,47.0659601,Nil,http://nil.mur.at/
49192602,15.4375989,47.0740742,Aiola upstairs,
63621200,15.4523885,47.0726465,pharmacy bar,www.pharmacy-bar.com
77811489,15.4415180,47.0665910,McDonald's,
251710887,15.4337489,47.0717298,Cafe Centraal,http://www.centraal.at/
251710888,15.4344504,47.0706420,tribeka,http://tribeka.at
251710889,15.4339001,47.0710287,Kunsthauscafé,http://kunsthauscafe.co.at/
251710890,15.4358726,47.0708520,Schwalbennest,
251710891,15.4387693,47.0705402,Sacher,
251710897,15.4407955,47.0711946,Eckstein,
251711052,15.4412508,47.0707092,Frankowitsch,http://www.frankowitsch.at/
251711053,15.4407441,47.0729828,Cafe Mitte,http://www.cafemitte.at
251711054,15.4400347,47.0735797,SternBar,
256098169,15.4108216,47.0536389,Mario's Treff,
256488416,15.4246652,47.0634958,For You,
257412119,15.4237922,47.0669589,Gasthaus Doppler,
257412123,15.4255190,47.0670288,Cafe Monaco,
257412125,15.4269241,47.0673459,Prince Charles,
260443425,15.4087927,47.0719098,Ritzi's,
266332008,15.4161184,47.0550379,Cafe-Restaurant Elisabeth,
266479021,15.4432420,47.0671133,Kapadokya Kebab,http://www.kapadokya-kebap.at
266479122,15.4361044,47.0714641,Flann O'Brien,http://www.flannobrien.at/
267255311,15.4748214,47.0564316,Kirchenwirt (vulgo Zechner),http://www.kirchenwirt-stpeter.gws.cc/
267255441,15.4725518,47.0567185,Alibi,
267255482,15.4759048,47.0575627,Café Logo,
267256095,15.4520216,47.0656578,North,http://www.northandsouth.at/
267256633,15.4483565,47.0648688,Corti,
269063448,15.4029608,47.0707123,Sorger,
269225090,15.4012320,47.1081014,Red Corner,
269227786,15.4135897,47.1139557,Zum Feldwirt,
269444696,15.4217920,47.1035928,Welat,
269444698,15.4208359,47.1056140,Kaffee Mühle,
269957911,15.4412307,47.0712636,Glöcklbräu,
270186861,15.5152659,47.1036227,Buschenschank Sattler,
270199336,15.3814072,47.0509684,Gasthaus St. Johann + Paul,
270330954,15.3737325,47.0340387,Orthacker,
270508849,15.4041088,47.0810800,Rathschüler-Muhr,
271409102,15.4696701,47.0642512,Steffis Café,
271410125,15.4014614,47.0731598,Beile,
271779034,15.3854165,47.0903413,Bergheuriger Mausser,http://www.maussermost.at/
274237132,15.4631541,47.0601822,Trattoria,
275416620,15.4329631,47.0282741,Temmel,
275529960,15.4964642,47.0701267,Mostschänke Schloss Lustbühel,http://www.buschenschank.at/Graz/Mostschenke-Schlo%C3%9F-Lustb%C3%BChel
275530402,15.4787541,47.0506724,s'Kirscherl,
276960140,15.4477908,47.0722487,Cohibar,
276960161,15.4440816,47.0686887,Carl,
277698073,15.4367279,47.0730256,Reinerhof,
277700351,15.4014928,47.0708952,Asia Wok Royal,
278641299,15.4412610,47.0670560,Cafe Sorger,
279160391,15.3860316,47.0665910,Gaisberg Stubn,
279844208,15.3962720,47.0797134,Kreuzwirt,
280071630,15.4052994,47.0850104,Bokan,
280171006,15.4326595,47.0711130,Cafe Sorger,http://www.sorgerbrot.at/
280171073,15.4395729,47.0667560,Wein & Co,http://www.weinco.at/standorte/alle-standorte/9361
280171201,15.4394936,47.0663875,Deutsch,
280171402,15.4405871,47.0668002,eat Asia,
280235883,15.4361446,47.0691820,Stix II,
280236650,15.4343741,47.0694638,Der Steirer,http://www.der-steirer.at/
280236676,15.4345258,47.0694626,Kaffee Weitzer,
280237319,15.4341606,47.0698974,Mangolds,http://www.mangolds.at
281040829,15.4243341,47.0713952,Postl,http://gasthaus-postl.at
287632812,15.3872757,47.0645313,Gasthof Zum Bayernbrunnen,
289182745,15.4669235,47.0622110,Café Bar Lounge PLÜ,
289887845,15.4380399,47.0665467,Neutorcafe,
290440103,15.4479259,47.0720120,Pastis,http://www.pastis.at
291463570,15.4403123,47.0715534,Molly Malone,http://www.molly-malone.at
291463571,15.4397802,47.0713952,M1 Cafe-Bar,http://m1-bar.at
291463572,15.4396963,47.0713595,Nachtexpress,
291464594,15.4464551,47.0668081,Athen,
291464595,15.4466310,47.0667373,Pamukkale,
291464826,15.4497572,47.0763717,Bierfactory XXL,http://www.bierfactoryxxl.at/
291464829,15.4464395,47.0785326,3 Goldenen Kugeln,
291465007,15.4197924,47.0715916,3 Goldenen Kugeln,
291465085,15.4330480,47.0732973,Brot&Spiele,http://www.brot-spiele.com/
292476935,15.3734481,47.1115959,Raachwirt,
292478042,15.3940199,47.1003797,Konditorei Renn,
297464322,15.4420218,47.0712441,Santa Clara,
297464403,15.4419181,47.0713886,Stainzerbauer,
297758637,15.4731381,47.0714792,Buschenschank Schaar,
299067900,15.4348618,47.0750645,Taverne zum Güldenen Bären,
299587849,15.4474776,47.0768069,Harrach,
300958650,15.4366935,47.0714154,O'Carolans,
301265567,15.4452280,47.0770017,Fotter,
304816813,15.4508368,47.0762607,Mensa Markt Uni Graz Sonnenfelsplatz,
309560419,15.4473415,47.0766191,Galliano,
312946789,15.4430915,47.0709234,The Office Pub,
312946791,15.4428865,47.0708695,The Spot,
312946798,15.4415273,47.0711057,Hasenstall,
312946799,15.4395355,47.0718696,Dizzy's,
312946800,15.4332816,47.0734931,Miles : Jazz Bar,
312946802,15.4333635,47.0734830,blendend,
316419529,15.4438171,47.0671951,Geflügel Draxler,http://www.gefluegel-draxler.at/
316756802,15.4730551,47.0567999,Gambaro Rosso,
317335810,15.4325893,47.0742476,Die Scherbe,http://www.scherbe.com/
319117640,15.4242339,47.0726767,Resel Stube,
330011818,15.4518867,47.0655560,South,http://www.northandsouth.at/
330064861,15.4510568,47.0695588,Bar28,
330261657,15.4371771,47.0709484,Weinstube Schmiedt,
330263916,15.4361294,47.0730459,Alte Münze,http://www.altemuenze.at/cms/1/
332349946,15.4013802,47.0703495,Das Eggenberg,http://www.das-eggenberg.at
333542773,15.4497427,47.0684064,Kork,www.kork-cafe.com
339415026,15.4625042,47.0410190,McDonald's,
339715582,15.4268977,47.0601379,Burger King,
344184756,15.4488569,47.0716777,Grammophon,
344195967,15.4267442,47.0710119,Foyer,http://www.cafefoyer.at
365547599,15.4031721,47.0731342,Roschitz Das Gasthaus,
366573470,15.4416203,47.0665948,Stockwerk,http://stockwerkjazz.mur.at/
369511880,15.4095360,47.0702586,Pucher,
369820208,15.4770244,47.1180704,Buschenschank Wastl,
371204083,15.4272499,47.0603629,Interspar Restaurant,
371388852,15.4637562,47.0400873,Interspar Restaurant,
387527897,15.4463102,47.0786672,Zeppelin,
387528628,15.4237405,47.0740590,Rondo,http://www.restaurant-rondo.at/
418639380,15.4506438,47.0802024,Bierbaron,
418715359,15.4452095,47.0779635,Lokal Müller,http://www.lokalmueller.at/
435044303,15.4109639,47.1165027,Taverne Zum Kirchenwirt,
442888896,15.4523215,47.0728575,Guest Room,
446861206,15.4365184,47.0729179,Graf Leopold,
446866223,15.4372953,47.0703169,Don Camillo,
452490438,15.4395713,47.0712908,Yamamoto,http://www.yamamoto-sushibar.at
454412013,15.4484210,47.0755105,Beanery Coffee,
454412014,15.4461520,47.0753737,Ritter,
454470895,15.4475741,47.0791717,Bica,
465223694,15.4358855,47.0648157,Sorger,
465223749,15.4367077,47.0647812,Hubert Auer,http://www.hubert-auer.at
465226993,15.4016831,47.0690430,House of Jausen,
465227876,15.4011801,47.0682822,Cafe Casino,
465228631,15.4007887,47.0677848,Weinstube Jäger,
472629497,15.4095976,47.0698888,Gelateria by Luis,
482375479,15.4603218,47.0585997,Mensa Inffeldgasse,
485613309,15.4339142,47.0815858,China Restaurant Imperium,
508759950,15.4474170,47.0752560,Tset tsen,
510122998,15.3918359,47.0992715,Gasthaus Kokol,
540732926,15.4521941,47.0811293,Zum Weißen Kreuz,
560544124,15.4493425,47.0759348,Geek's Café,https://www.facebook.com/Geeks-Caf%C3%A9-1693120194257119
560985778,15.4465115,47.0762540,Mond,www.chinarestaurantmond.at
566701248,15.4497292,47.0758341,Mangolds vis-a-vis,
566703094,15.4508812,47.0785836,ReSoWi-Cafeteria,
568129694,15.4311571,47.0666869,Gasthaus zu den 3 goldenen Kugeln,http://3goldenekugeln.at/
568129696,15.4636767,47.0658607,Gasthof di Gallo,
568816532,15.4455175,47.0758102,B.eat,https://www.facebook.com/beat.graz
568816537,15.4477896,47.0753237,Unis Kebab,
570339808,15.4333334,47.0715493,The Running Horse,
575136974,15.4407159,47.0727664,Hathi,
616791028,15.4388993,47.0695308,Welscher Stub'n,http://www.welscherstubn.at
616896682,15.4415730,47.0711161,Steirer Pub,Steirer-pub.at
616898598,15.4383610,47.0717384,Sorger,
629028260,15.4639380,47.0600408,Cafe Pail,
662159421,15.4509623,47.0801713,Liebig,http://www.cafe-liebig.at/wp/
704495434,15.4588850,47.0753231,tribeka,http://tribeka.at
759627874,15.4429536,47.0700314,Weinlokal Der Keller,
788311947,15.4478957,47.0876825,Cafe Rosenhain,
810497467,15.4840854,47.0475089,Pizzeria Bellino,http://bellino-graz.at/
815231372,15.3959943,47.0566841,Famoos,
817549245,15.4334386,47.0731380,The Pub,
825158290,15.4685883,47.0816521,Cafe Kern,
829053573,15.4391662,47.0687939,Gerüchteküche,http://www.geruechtekueche.org/
829114314,15.4246116,47.0716847,Siam,
830458540,15.4522697,47.0593797,Gustotheke,
835053146,15.4427091,47.0677857,Grünzeugs,http://gruenzeugs.com/
835053147,15.4410944,47.0668329,Da Pina,
841828276,15.4494016,47.0450213,Kaserne 99,
847359462,15.4424325,47.0670721,Burger King,https://www.burgerking.at/
847359541,15.4370320,47.0716472,Cafe Erzherzog Johann,www.erzherzog-johann.com
847359626,15.4416705,47.0673210,Eat&Go,
853676133,15.4602422,47.0840612,Purberg,
855364232,15.4418953,47.0687216,MM,http://www.mm-graz.at/
860343830,15.4389451,47.0800091,Hendl Eck,
860412554,15.4394981,47.0661460,Tam Tam,
861376568,15.4403145,47.0631405,Brötchen Rainer,http://www.imbiss-rainer.at/
861376608,15.4404035,47.0634765,s'Biergartl,
861376630,15.4423013,47.0694766,Gelateria Roma,
863999549,15.4430997,47.0536941,Don Benio,
864679931,15.4459439,47.0576950,Restaurant Georgi,
864679942,15.4374841,47.0657570,Ganesha,http://www.ganeshagraz.at/
864679943,15.4395443,47.0659602,Milu-Milu,
866131273,15.4410387,47.0634761,Cafe 7,
866917628,15.4436304,47.0632193,Ortweinstand,
868971370,15.4418092,47.0666555,Subway,http://www.subway-sandwiches.de
868996156,15.4283623,47.0711871,Chillout,
876338129,15.4163018,47.0998706,Bianco,
876338130,15.4400760,47.0716468,Gabriel,
877058338,15.4388971,47.0709916,Temmel,http://www.charlytemmel.com/
877058349,15.4391711,47.0708545,Nordsee,http://www.nordsee.com/at/
879568181,15.4356978,47.0716827,La Place,https://www.kastner-oehler.at/services/gastronomie/laplace/
879568184,15.4487225,47.0616430,Blue Jean,
881888277,15.4320210,47.0663890,Shisha Palace,
885451366,15.4397231,47.0684275,Martin Auer,
885451566,15.4368901,47.0708355,Leiner's,http://www.leiners.at/
888204227,15.4370543,47.0707489,Peppone,
888735554,15.4403457,47.0708973,Herzl,www.dieherzl.at
888853135,15.4337651,47.0701808,Zur Alten Press,http://www.zuraltenpress.at
890457273,15.4365863,47.0656908,Cafe Restaurant Traude,
891954987,15.4313212,47.0740934,Tiffany Bar,www.tiffany-bar.com
897518093,15.4395231,47.0660783,Chang Thai,http://www.changthairestaurant.at/
899305818,15.4403268,47.0747847,Le Schnurrbart,https://www.facebook.com/le.schnurrbart
899427046,15.4410205,47.0461978,Black-Box,
904483878,15.4159451,47.0316818,Kommerzial,
905212298,15.4333902,47.0682375,Loft,
906742088,15.4396881,47.0724616,Hofbäckerei Edegger-Tax,http://www.hofbaeckerei.at
906948751,15.4416318,47.0735802,Buddha Bar,http://www.pfauengarten.at
910862567,15.4398481,47.0739553,Rosamunde,
911035765,15.4228323,47.0332933,IKEA Restaurant,
911035769,15.4170596,47.0338294,Restaurants im Center West,
920529746,15.4387853,47.0700439,El Pescador,http://www.elpescador.at/
925926051,15.4373060,47.0716819,Ernst-Fuchs-Bar,www.erzherzog-johann.com
926839011,15.4382618,47.0672584,Cafe Kaiserfeld,http://kaiserfeld.blog.com
926922260,15.4624156,47.0407163,3 goldene Kugeln,
926922266,15.4636759,47.0406823,Buddha,
926922391,15.4627963,47.0409161,Gotthardt,
929232430,15.4424356,47.0678115,Porta di Ferra,
929418362,15.4330707,47.0715039,Contra Punto,https://www.facebook.com/Pizzeria-Contra-Punto-305281269500842/timeline/
930653384,15.4404026,47.0710217,Il Centro Graz,
930653448,15.4392884,47.0713955,Torona,http://www.torona.at
937611039,15.4377404,47.0708900,Pronto,http://www.pronto.co.at
937611046,15.4391033,47.0692891,Landhauskeller,http://www.landhaus-keller.at
940425097,15.4630413,47.0408453,Don Camillo,
968532281,15.4515410,47.0747467,Kulturhauskeller,
973782992,15.4573197,47.0698743,Axolotl,http://www.axolotl.at/
981231736,15.4201880,47.0955952,Gasthaus zum goldenen Hirschen,
982622689,15.4677059,47.0789679,Impuls,
991630365,15.4499462,47.0758867,Pastaria,
991630464,15.4437362,47.0780537,Geidorf-Standl,
991630526,15.4466513,47.0787478,Cipollino,
992768455,15.4355229,47.0240884,Franzl Weinstube,
993871416,15.4534374,47.0570355,Stoariegelwirt,
994994742,15.4325317,47.0568130,XXXLutz Restaurant,
994995033,15.4266998,47.0591400,Admiral Games,
994995536,15.4665224,47.0794813,Kostes,
994996091,15.4584093,47.0753624,Cafe Anetter,
994996230,15.4048010,47.0528487,Admiral Sportwetten,
1001279017,15.4520425,47.0751628,Three Monkeys,
1014657618,15.4501065,47.0698538,Eckhaus,www.eckhaus.at
1014657685,15.4513451,47.0694626,s´ RechBAueR,
1026751463,15.4448369,47.0670623,Jakomini Kebab Haus,
1026751519,15.4452086,47.0670157,1001 Nacht,http://cafe1001nacht.at
1027319482,15.4516447,47.0746086,Orange,
1030160634,15.4253536,47.1022137,Chop Suey,
1030160659,15.4217282,47.1028918,edi's buffet,
1036478541,15.4586042,47.0881174,China Haus,http://members.aon.at/chinarestaurant-chinahaus/
1046513577,15.4386942,47.0591230,Dartclub,
1055050873,15.4527224,47.0774790,Sorger,
1060247304,15.4366726,47.0709972,Cafe T.H.,
1060247363,15.4361188,47.0708706,barista's,
1060247437,15.4367686,47.0709843,Peter Weinstube,
1060247446,15.4360264,47.0708477,Grillbox,
1067761903,15.3951340,47.0465117,Grießner-Wagner,http://www.griessner.at
1084426931,15.4508375,47.0720899,Hubert Auer,
1098006492,15.4409180,47.0683704,tribeka,http://tribeka.at
1098006502,15.4411373,47.0687925,Tchibo,
1098016183,15.4413417,47.0711484,Cafe Glockenspiel,http://www.glockenspiel.at
1099712263,15.4416154,47.0712444,Hemingway Bar,www.hemingway-bar.at
1099747135,15.4372958,47.0723634,la enoteca,
1100487243,15.4511855,47.0753281,Revolution,
1100664472,15.4462272,47.0676454,Cafe Bistro Santorin Zum verlorenen Sohn,
1100664481,15.4458523,47.0676846,Q,http://www.clubq.at
1103121576,15.4532601,47.0762659,Café Global,http://www.aai-graz.at/cms/index.php?page=heim-haus&hl=de_DE
1109142695,15.4299330,47.0370356,Zum Kochlöffel,
1109772615,15.4526013,47.0721377,Fontana di Trevi,
1111820852,15.4517874,47.0389138,Kutscherhof,
1129737263,15.4325995,47.0381974,s'Reindl,
1133577978,15.4600682,47.0757370,Leonhard Stüberl,
1157668100,15.4273769,47.0674993,Hannes - Das Original,
1158028124,15.4305638,47.0857174,Cafe Lang,
1162583065,15.4387639,47.0680599,Ducks Coffee Shop,
1197831412,15.4396545,47.0728856,coco,
1197831421,15.4400911,47.0736501,Seasons,www.seasons.at
1200796608,15.4337942,47.0724055,Opatija,http://www.opatija-restaurant.at/
1200796728,15.4210279,47.1032526,Happy Buddha,
1205514740,15.4004572,47.0256546,Neu Nagoja,
1226012003,15.4245803,47.1248063,Scherwirt,
1234442464,15.4332235,47.0678642,Grill am Gries,
1235206880,15.4235426,47.1136245,La Botte,http://www.la-botte.at
1239256152,15.4317432,47.0671094,Cinanbeyli Kulu,
1240370343,15.4230643,47.1128210,Cafe Feiertag,
1241442919,15.4628909,47.0603263,Antalya,
1242078700,15.4418448,47.0691938,Leberkas Willi,http://www.leberkaswilli.at/
1253952687,15.4317685,47.0668323,Mischmasch,
1259706259,15.4426718,47.0675708,1er-Standl,
1259706278,15.4422626,47.0675873,Imbiss Stacherl,
1259706281,15.4429870,47.0675918,Martin Auer (Brotküche),http://www.martinauer.at
1259706297,15.4424477,47.0676003,Leberkas Willi,http://www.leberkaswilli.at/
1259706300,15.4425744,47.0675675,s'Kärntner Stand'l,
1262535759,15.4514643,47.0694270,Memo1,
1265783498,15.4210906,47.0379642,Valentino,
1274272029,15.4493526,47.0663408,Bella Vita,
1274759485,15.4523219,47.0726402,paparazzi street lounge at pharmacy bar,www.pharmacy-bar.com
1274902729,15.4524882,47.0727347,garden lounge at pharmacy bar,www.pharmacy-bar.com
1307317627,15.4518918,47.0713009,People's,
1315145875,15.4332169,47.0609955,Goldene Schwalbe,
1319828290,15.4658197,47.0662972,Cafe Marianne,
1320235051,15.4369629,47.0597239,Ralf's Come In,
1346360693,15.4400914,47.0740496,Condor,http://www.condor-graz.at/
1352420286,15.4383978,47.0709998,Belly's urban fast food,
1363117547,15.4585040,47.0689511,Weinstube Vallant,
1363125009,15.4499281,47.0641571,Efendi,
1363125010,15.4505472,47.0677907,tribeka,http://tribeka.at
1363125013,15.4474506,47.0652296,Unterm goldenen Dachl,
1363125014,15.4514616,47.0679749,Bio-Laden Matzer,http://www.bio-laden.at
1363128984,15.4472517,47.0687672,Kitchen 12,
1363128986,15.4467617,47.0678663,Sägewerk Klassik,
1363128988,15.4468417,47.0689603,Galerie Stehcafe,
1363132392,15.4413546,47.0725301,Schreiner,http://www.schreiner.bar/
1363132399,15.4399405,47.0724418,Peppino im Hofkeller,
1363132401,15.4401633,47.0710168,Hoppala,
1363478707,15.4301414,47.0748052,Lendplatzl,
1363478713,15.4309354,47.0729711,Marschallhof,
1363478714,15.4309407,47.0729291,Stern,
1363478715,15.4333601,47.0710165,Koko,
1363478720,15.4313860,47.0748856,Miran Schaweder,http://www.falter.at/web/wwei/detail/6544/fisch-imbiss-miran-schaweder
1363478726,15.4320431,47.0746116,Santa Lucia,
1369086923,15.4309808,47.0668768,Ankara Grillhaus,
1369216387,15.4446610,47.0662423,Music-House,http://www.music-house.at/
1369230035,15.4472581,47.0686045,Kaisers BBQ,http://www.kaisersbbq.at
1373206090,15.4292547,47.0699536,Café Graz,
1377124095,15.4504128,47.0637182,Lebensgfyhl,
1377471285,15.4537657,47.0564062,Captain’s Riff,
1386746851,15.4395094,47.0709001,Zeitlos,http://www.cafe-zeitlos.at
1399962009,15.4394753,47.0728977,Goldene Pastete,
1411138570,15.4523562,47.0659264,aroom,
1411138572,15.4498882,47.0672258,Blaukrah,http://www.blaukrah.at
1411138587,15.4505850,47.0663196,Tintenfass,
1411205656,15.4440311,47.0620590,Goldener Apfel,
1411544004,15.3928009,47.0995459,Antonis,
1413431084,15.4437603,47.0618319,Kaffeesiederei Schraußer,
1422456141,15.4401063,47.0683860,Mild,http://feinkostmild.at/
1425742782,15.4533767,47.0728736,Thomawirt,http://www.thomawirt.at/
1425742785,15.4575431,47.0705524,Wallerie,
1428294975,15.4566549,47.0864422,Das Lorenz,http://www.daslorenz.at
1430926640,15.4336529,47.0675630,Dainadoo,http://www.dainadoo.at/
1432474108,15.4275231,47.0776511,Zur Gemütlichkeit,
1433225428,15.4225661,47.0809615,Cafe Bar Rali,
1433613744,15.4485926,47.0643103,Pirsch Stüberl,
1434330631,15.4504665,47.0719914,Barista's Music & Art,www.baristas.at
1435011615,15.4299159,47.0759899,Nacht-Standl,
1435328903,15.4290544,47.0711568,Hubert Auer,
1438220158,15.4309443,47.0768104,Omoka,
1438450806,15.4147164,47.0913467,Zunki,
1438707644,15.4321831,47.0608538,Morrehof,
1446186235,15.4569843,47.0697253,Cafe Weingrill,
1446291306,15.4398290,47.0733776,Matcha,
1446291307,15.4396548,47.0733509,Trailer,
1446305820,15.4186862,47.0840108,Milchpause,
1447489205,15.4414032,47.0614916,Posthorn,
1449672099,15.4438083,47.0540563,Cafe Zum Christian,
1454714897,15.4250128,47.0830343,Zeillerhof,
1454906013,15.4849326,47.0428448,Hansis Würstelbude,
1454908660,15.4967341,47.0768809,Sorger,
1457222996,15.4283576,47.0888567,Bäckerei König,
1458649801,15.4468652,47.0679489,Sägewerk ToGo,http://diebausatzlokale.at
1458649813,15.4469324,47.0680208,Osteria - Opernblick,
1459017609,15.4427546,47.0670518,Tasty Donuts,http://www.tastydonuts.de/graz/
1464504989,15.4458653,47.0678167,Plan B,
1464830355,15.4426398,47.0655264,Hong Kong,
1468770738,15.4460703,47.0666151,Diamant,
1468770763,15.4256865,47.0710832,Side,http://www.pizzeriaside.at
1470825756,15.4520723,47.0605197,Steirerstüberl,
1470825769,15.4481937,47.0633534,Ahaan Thai,
1475112641,15.4447270,47.0781020,Dexter Burger 3,
1477146831,15.4035572,47.0293449,Zum Mandarin,
1477146972,15.4315034,47.0301068,iClub,http://www.iclub-graz.at/
1481342768,15.4363988,47.0764977,Die große Fernberger Bastei,
1481342769,15.4365043,47.0760833,Dr. Friedrich Emich,
1482361396,15.4472572,47.0788995,The Churchill,http://www.thechurchill.at/
1482361397,15.4473577,47.0789263,Grün Zeug,
1482363548,15.4469100,47.0788103,Rosamunde,
1483304663,15.4387474,47.0791678,Hakuna Matata,
1487593972,15.3993211,47.0614391,Maria,
1488559157,15.4030914,47.0540219,Wagner,
1492540543,15.4214773,47.0712574,Happy Day,
1493311423,15.4197895,47.0747878,Babenbergerhof Zur Klöpferwirtin,
1494657646,15.4525022,47.0752649,Merano,
1494660390,15.4519201,47.0748630,Gecco,
1495573995,15.4257795,47.0899117,Körösi,
1495809480,15.4329004,47.0611538,Cafe,
1495809481,15.4330641,47.0621262,Cafe-Club Silver,
1505600349,15.4009038,47.0635470,Cafe Sandy's,
1529456817,15.4440533,47.0676590,Area 5,
1532638370,15.4338835,47.0719256,Kawango,www.kawango.org
1536753514,15.4422232,47.0644494,O'Sullivans Irish Pub,
1536753517,15.4439046,47.0656131,Frühbar Szene,
1536753835,15.4475263,47.0725673,6 in the City,
1539784988,15.4413744,47.0709750,UP25,http://www.up25.at
1540270948,15.4439511,47.0671703,Culinarix,
1545210729,15.4369359,47.0723502,Schmidhofer im Palais,
1567937659,15.4502024,47.0663239,Queens,
1576852516,15.4292525,47.0744105,Angelique,
1582722916,15.4490502,47.0719450,Das Florian,http://www.parkhotel-graz.at/paged801.html?id=1051
1582746935,15.4185523,47.0743428,Urviech's Wirtshaus,
1582782539,15.4305034,47.0308539,Comida,
1587241565,15.4278015,47.0712218,Cafe Johanna,
1587468690,15.4088244,47.0947351,Zanklstüberl,
1587562129,15.4053837,47.0958968,Interspar Selbstbedienungsrestauarant,
1596485353,15.4376065,47.0710412,Euro-Kebab,
1596491120,15.4365209,47.0708260,Alfred's Imbiss,
1599341726,15.4312615,47.0827545,Martin Auer,http://www.martinauer.at
1599341742,15.4340054,47.0814072,Kebab & Pizza,
1599759963,15.4061449,47.0925970,ADMIRAL Sportwetten,
1600042445,15.4303777,47.0710846,indicio,http://www.indicio.at
1602166350,15.3950522,47.0470898,Konditorei Kraner,www.konditorei-kraner.at
1602166368,15.3949893,47.0502150,Imbiss zum neuen Steirer,
1602166372,15.3951107,47.0469113,Devrim,
1602166398,15.3944006,47.0501276,Wiener & Co,
1602166412,15.3949343,47.0492254,Café Tresor,
1604790986,15.4289575,47.0668862,Fujiyama,
1605696661,15.4535502,47.0729805,Rosamunde,
1613660568,15.4675064,47.0793335,Zu den 3 goldenen Kugeln,http://www.3goldenekugeln.at/
1614150254,15.4167537,47.0339508,Il Centro,
1618928383,15.4470041,47.0666215,Dim Sum,
1633416601,15.4335443,47.0651491,Cafe Bar Malibu,
1633416620,15.4440637,47.0699116,Kebap World Class,
1639203476,15.4192468,47.0744736,Cafe Royal Maggy,
1645584096,15.4278761,47.0782002,Cafe/Bar 13,
1646377649,15.4414465,47.0710844,Asia Imbiss,
1660596245,15.4446486,47.0601371,Burgerland,http://www.burgerland-graz.at/
1660596251,15.4436756,47.0610532,Bali,
1660773484,15.4367182,47.0631238,Auschlössl,
1661574876,15.4409493,47.0673214,Rox,http://www.rox-musicbar.com
1676571531,15.4629803,47.0665318,Cafe Zapo,http://cafezapo.gfsg.at/
1677400715,15.4383017,47.0831623,Gasthaus Grabenhof,
1684092408,15.4495141,47.0744236,Momiji,
1684092410,15.4498629,47.0745330,Don Roberto,www.pizzeria-donroberto.at
1684698729,15.4370100,47.0722395,König Brot,
1687838271,15.4385561,47.0202200,Cafe,
1687899376,15.4442369,47.0658910,Mondscheinstüberl,
1688850484,15.4307510,47.0744706,Zur Steirerstub'n,http://www.pension-graz.at/
1688851898,15.4342293,47.0785191,Die Amsel,http://www.dieamsel.at/
1688884025,15.4373965,47.0720530,Altsteirische Schmankerlstube,
1688884031,15.4373317,47.0721253,Krebsenkeller,
1688884047,15.4470612,47.0786738,Skurril,
1688884050,15.4601430,47.0746905,CaRa-dein Fahrradcafe,https://www.fahrradcafe.at/
1688884065,15.4397984,47.0736094,continuum,
1688947660,15.4439640,47.0640031,Tick Tack,
1688947686,15.4464484,47.0665867,Wilding,
1717695398,15.4470012,47.0680836,Cafe Nagele,
1721083581,15.4429434,47.0668364,Freigeist,http://www.freigeist-burger.at
1727518137,15.4482803,47.0792242,Einstein,
1733984940,15.3871252,47.1017030,Gasthaus Zur Mühle,
1742523301,15.4298568,47.0854368,Steirereck,
1743682313,15.4517291,47.0721985,Tropical,
1744808273,15.4442239,47.0541793,Pizzeria Da Vinci,
1745847331,15.4022120,47.0708055,Sonneninsel,
1750247123,15.4437161,47.0677602,BoboQ,www.boboq.de
1750247129,15.4204674,47.0680247,Cafe Lara,
1750247135,15.4506512,47.0719508,China Restaurant Jade,
1750247156,15.4440214,47.0678333,wunderBar,
1753247082,15.4393613,47.0726098,Wunder Bar,
1753247130,15.4392733,47.0725835,yogurtlove,www.yogurtlove.at
1756238830,15.4311454,47.0646251,Khura Thai Bangkok,
1757054276,15.4417022,47.0666695,Grill & Box,
1763734775,15.4062874,47.0693619,Mensa,
1765438366,15.4331696,47.0538270,Gourmet Express,www.gourmetexpress.at
1765438401,15.4323423,47.0539162,Mampf,
1765438430,15.4100276,47.0338442,Kika,
1765438456,15.4424210,47.0658810,Papa's Pizzeria,
1765438870,15.4214824,47.0717478,Coffee & Kitchen,http://www.coffeeandkitchen.at/
1771751167,15.3979728,47.0618029,Trinkaus,
1771844719,15.4415367,47.0664124,Milk 'n' Twist,
1771844728,15.4415581,47.0662903,O'riginal,
1782556414,15.4235811,47.0713928,Radaktiv,
1789077953,15.4155596,47.0999981,Arland,
1790776955,15.4169636,47.1007867,Traude & Franzi's Hexenscheune,
1798478660,15.4218054,47.1035327,Wölfl,www.woelfl-baecker.at
1798559273,15.4260948,47.1014259,café bar bahia,http://www.cafe-bahia.at/
1805062783,15.4319600,47.0660132,Figo´s Pizza & Grill,
1817847137,15.4489913,47.0789627,Uni Café,
1826503175,15.4299501,47.0760743,Facefood,
1826537411,15.4312063,47.0748855,Imbiss Hauser,
1826545351,15.4319411,47.0747361,Pierre's,
1827052939,15.4036248,47.0702515,Admiral Sportwetten,
1827052946,15.4013040,47.0671219,Atas,
1827505446,15.4291542,47.0768813,Lend Bräu,
1827513801,15.4304609,47.0747229,Lendcafe,
1829905005,15.4287249,47.0760095,Akdag,
1829905006,15.4290531,47.0768350,Akdag,
1835636998,15.4333678,47.0682153,Club wakuum,http://www.wakmusic.at
1835872417,15.4356939,47.1186345,Günther,
1836959186,15.4637251,47.0389095,Clubino,
1838890562,15.4375329,47.0718875,Nespresso,
1839226499,15.4211740,47.0738435,Abendweinstube zum Landsknecht,
1839226502,15.4189159,47.0734002,Best Food Grill,
1839226503,15.4250166,47.0749375,Cafe Sunshine,
1839226504,15.4191390,47.0734462,Cafetreff,www.myeuroplay.at
1839226530,15.4270359,47.0755111,Gasthaus K. Gartner,
1839226582,15.4206415,47.0738052,Die Tomate,
1848893845,15.4334179,47.0710705,Segafredo,
1857608232,15.4301002,47.0640491,Schweitzer,
1859807491,15.4577687,47.0750369,Cafe Uhu,
1860008515,15.4207675,47.0922378,Mur Beach,
1868576672,15.4281719,47.0773110,Die Profis,
1873037361,15.3856452,47.1095121,Gasthaus Pachler zum Schmiedwirt,http://www.gasthof-pachler.at/
1878440522,15.4397854,47.0731650,Pizzeria Catharina,
1878440530,15.4394147,47.0735796,Schlösslhof,
1879146351,15.4532662,47.0728345,Happy,
1879146352,15.4520689,47.0724568,Yong Ramen,
1879146361,15.4516327,47.0723760,Schwarzer Adler,
1887835776,15.4308486,47.0638856,Bernsteiner,http://www.wirtshaus-bernsteiner.at/
1888734680,15.4381457,47.0711472,Milchstand,
1889752902,15.4371846,47.0453717,Gasthaus zur Puchmühle,
1901329232,15.4017396,47.0914072,Cafe-Imbiss Stop,
1901944369,15.4202910,47.0856546,Hofstätter,http://hofstaetter.st
1908136805,15.3930305,47.0789571,Sanlo,
1908136821,15.4076078,47.0701646,Tigris,
1925550047,15.4318740,47.0743224,Bakaλiko,www.bakaliko.at
1925597228,15.4309725,47.0746841,Macello,
1932223082,15.4360707,47.0658207,Astello,
1933610291,15.4582462,47.0766019,Ifri-Imbiss,
1938655027,15.4423395,47.0662471,Vintage Cafe Bar,
1940170090,15.3927911,47.0633147,Cafe Piccolo,
1967579427,15.4383153,47.0834052,La Bodega,
1976671732,15.4378949,47.0711017,Bio-Fit,
1976671744,15.4359182,47.0696452,Café Erde,http://cafeerde.com/
1976671759,15.4378596,47.0711595,Heisse Würstel,
1976671766,15.4377891,47.0712816,Heisse Würstl,
1976671773,15.4379563,47.0712126,Buresch & Buresch Imbiss,
1976671774,15.4374487,47.0702277,La Casita,
1976671778,15.4378237,47.0712235,Strombergers,
1976671780,15.4379630,47.0711392,weil's Wurscht is,
1977178511,15.4362057,47.0701912,Kapsreiter Ritterstüberl,
1977862007,15.4899345,47.0776719,Cafe Ragnitz,
1977862009,15.4853338,47.0782957,Cafe Vorstadt,https://www.facebook.com/cafevorstadt/
1978233040,15.4297709,47.0709036,Graz Pizza & Kebap,
1978233059,15.4289422,47.0713203,Rosegger Cafe,
1978233065,15.4298121,47.0711053,Urfa Kebap,
1978233072,15.4360471,47.0699219,Pierogi,http://www.pierogi-graz.at/
1978233152,15.4314075,47.0710416,Star Kebap,
1978233154,15.4429512,47.0676703,s'Jako,
1979400738,15.4511871,47.0599349,incafe,
1985368969,15.4800938,47.0501844,San Bar,http://www.sanpietro.at
1990352381,15.4371534,47.0705867,Genussbar dreizehn,
1992832574,15.4440429,47.0703877,Ferl's Weinstube,
1996892613,15.4415467,47.0663624,King Cadillac,
1997302617,15.4422816,47.0676345,Plauderecke,
2002716405,15.4552611,47.0689104,Gasthaus-Cafe zum Klamminger,
2006538437,15.4164971,47.0340867,Strindberg,
2021470575,15.4480889,47.0737917,Laufke,http://www.laufke.net
2021470576,15.4430568,47.0700730,Gino,http://www.ginocaffe.com
2041740911,15.4233556,47.0714101,City Garden,
2041906359,15.4335094,47.0703088,Le Passage,
2041906361,15.4231168,47.0714240,Venezia,
2041906362,15.4339771,47.0722255,Caylend,
2042061486,15.4391593,47.0691851,Buna Kaffeeladen,
2050501936,15.4055834,47.0937067,Maxx Kebap.Imbiss,
2058754760,15.4248624,47.1019985,Stukitz-Stüberl,
2071435836,15.4515242,47.0625552,Gmota,
2074541490,15.4418557,47.0689115,Cafe Moser,
2080488663,15.4306900,47.0309550,Cocktail Bar Kiss,
2080488667,15.4404960,47.0584479,Ifri,
2080488672,15.4425758,47.0676603,Imbiss Pappenstiel,
2080488679,15.4410224,47.0582182,Jeden Tag,
2080488683,15.4306010,47.0311265,Oscar,
2080488687,15.4428367,47.0676724,Streira Box,
2080488694,15.4407978,47.0581907,Öcal Market,
2087254857,15.4201171,47.0859265,Cafe Pub Theo,
2087345850,15.4362762,47.0256032,Fledermaus,http://www.fledermaus-graz.at
2088899992,15.4335145,47.0270246,Cafe Generals,http://www.cafegenerals.at
2088930975,15.4354587,47.0255819,alpha Card Casino,http://www.alphacasino.at
2101696063,15.4441544,47.0671460,MyKebab,
2101696064,15.4503780,47.0639532,Dexter Burger 5,
2117126903,15.4442815,47.0655410,Ginko,http://www.restaurant-ginko.at/
2117559464,15.4073242,47.1124956,Sankt Gotthard Stub´n,
2121793255,15.4374827,47.0704344,Revita,www.revita.at
2121793284,15.4208458,47.1026309,guggi,
2127249341,15.4483584,47.0779997,Nandos,
2130657604,15.4511160,47.0746457,Scheinbar,
2130963304,15.4319384,47.0698563,CuntRa  Bar & Cafè,http://cuntralakunsthure.blogspot.co.at/
2130963326,15.4423113,47.0653078,Zu den 3 wegweisenden Sternen,
2131409456,15.4043508,47.0680945,Siciliana,www.siciliana.at
2136753456,15.4332139,47.0707892,Kiwano Express,http://www.kiwano-restaurant.at/
2136753457,15.4373353,47.0710696,Mucki's Weinstube,
2138691457,15.4388129,47.0698023,El Gaucho,http://www.elgaucho.at/graz/home.html
2139181242,15.4517321,47.0694644,Der Grieche,
2139240924,15.4429679,47.0632221,Brötchen Rainer,
2140606181,15.4415477,47.0653113,Curriander,
2141640883,15.4338288,47.0694699,Generals,
2141640902,15.4318780,47.0672815,El Encuentro,
2141640913,15.4314540,47.0637732,Mirage,
2141640915,15.4319769,47.0672881,Meet me there Gasthaus,
2141640916,15.4316432,47.0670331,Solitär,
2142832590,15.4225165,47.0333963,IKEA Cafe,
2153085536,15.4308391,47.0849010,Kolonie,
2206467133,15.4098914,47.0692595,Buffet,
2258876986,15.4497154,47.0781076,libresso,www.libresso-uni.at
2272080046,15.4077017,47.0740120,Cafe Irena,
2275351970,15.4146260,47.0443692,Clock-Tower,
2280105272,15.4310578,47.0586712,Anka Pizza & Kebap,
2282623441,15.4181830,47.0911511,Café Grossauer,
2284958310,15.4471761,47.0768251,Cofeba,
2286213089,15.4089851,47.0686894,Mensa,
2298579897,15.4318067,47.0740942,Demiri,
2299236376,15.4093429,47.0729515,Pizzeria Siesta,http://www.brauhaus-graz.at/siesta/
2306463100,15.4035109,47.0685903,Das Kochkabinett,www.kochkabinett.at
2306948175,15.4567485,47.0458748,Arena,www.arena-pizzeria.at
2307853184,15.4048928,47.0726799,Alt Eggenberg,
2307853229,15.4048111,47.0730633,Kebaphaus Eggenberg,
2307853292,15.4049026,47.0727624,Rockets Internet,
2307853342,15.4045568,47.0728964,Wettpunkt,
2309348915,15.4071384,47.0757778,Gulascheck,
2309509339,15.4266470,47.0603857,Inn-City Treff,
2322317566,15.4542949,47.0767188,friends,http://www.friends-time.at/
2341231638,15.4455964,47.0616943,Doret,
2341231657,15.4266677,47.0684385,Halici,
2341231675,15.4266590,47.0683095,Sportkegelbahnen Scheff,
2341231685,15.4267832,47.0677276,Verein Dostlar,
2348386329,15.4305779,47.0574816,Schatulle,
2348386330,15.4326184,47.0824658,Baristas,
2348386334,15.4269559,47.0709969,Buffets im UCI,
2349883019,15.4376254,47.0703328,Fresh to eat,
2350736578,15.4633865,47.0345322,Welg,
2356351846,15.4218332,47.1040026,Cafe Andritzer Hof,
2366152079,15.4204386,47.0606617,Venezia Star,
2381579936,15.4214792,47.1036298,Cafe 4+5,
2384149623,15.4675830,47.0789583,Istanbul,
2386308206,15.4439794,47.0669931,Kara,
2387608584,15.4330266,47.0733659,Cafe Baccara,
2387608620,15.4336408,47.0721368,Sterz im Mohrenwirt,
2387608711,15.4324950,47.0712620,Vinothek Prosecco,
2389390624,15.4309016,47.0741847,Jaguar,
2389390753,15.4325538,47.0736946,The Hungry Heart,
2389390756,15.4314698,47.0748219,Herr Siegfried,http://www.herrsiegfried.at/
2401163932,15.4501942,47.0705669,Lessing,
2401290233,15.4507013,47.0665460,Cafe Robin Hood,
2401290234,15.4505181,47.0670403,Café Mandell,
2401290238,15.4511652,47.0697416,Gaumenkino,http://gaumenkino.at/
2401290239,15.4517379,47.0664830,La Baguette,
2409499816,15.4250129,47.1002047,Café Flowers,
2422130028,15.4070377,47.0761720,Konditorei Klescher,
2431147065,15.4413650,47.0659892,Scheucher,http://www.restaurant-scheucher.at/
2431147068,15.4413537,47.0658903,Piccolo,http://www.restaurant-scheucher.at/piccolo/
2440722536,15.4293912,47.0699352,Tanzstadl Klapsmühle,www.tanzstadl.at
2440869534,15.4262978,47.0541982,Felicita,
2440869546,15.4268920,47.0516925,Helgas Stüberl,
2440869587,15.4268354,47.0511634,Sportwetten,
2440869591,15.4259449,47.0512660,Sportcafe „Hermann“,
2442340714,15.4339056,47.0729296,Cafe Baltimore,
2442345172,15.4189626,47.0841631,Pizzeria Bellagio,http://www.pizzeria-bellagio.at
2444075882,15.4435825,47.0697039,Barista's,
2448322480,15.4211821,47.1044447,Zuckerwürfel,https://www.facebook.com/cafezuckerwuerfel
2448322481,15.4324891,47.0714264,La Tavernetta Enoteca,
2448322484,15.4462267,47.0673672,Rath,
2449668340,15.4624839,47.0410468,La Fleur,
2450440878,15.4403111,47.0713426,L´Osteria,www.losteria.eu
2463393903,15.4288099,47.0770502,Exil,
2463393904,15.4331517,47.0682726,Club-Cafe,
2463393917,15.4293496,47.0765599,Chaplin,
2463393919,15.4322067,47.0673720,Cafe Montreal,
2463393924,15.4399915,47.0706069,Klapotetz,www.vinothekklapotetz.at
2463393926,15.4323634,47.0675847,Kukuruku,
2463393945,15.4330788,47.0681991,da Piero,
2468773140,15.4188868,47.0728391,Grill & Box,
2471602047,15.3997008,47.0626034,La Pizza,www.lapizzagraz.at
2474183524,15.3976507,47.1054133,Eduscho,
2475991591,15.4015104,47.1024999,Hooters,
2475991598,15.3974932,47.1054851,Merkur Restaurant,
2480003652,15.4287526,47.0661968,Postgarage cafe,http://www.postgarage-cafe.at
2480179134,15.4239110,47.0713658,L'Originale,
2481812022,15.4328984,47.0823682,Cafe am Hasnerplatz,
2481812025,15.4226128,47.0934390,Pizza Zentrale,
2493098993,15.4340687,47.0703151,parks,http://www.parks-graz.at/
2494496779,15.4100532,47.0341263,Kika Restaurant,
2494496780,15.4307259,47.0307925,Running Sushi,
2502417650,15.4012041,47.0252245,Carib,
2502419181,15.4002902,47.0242972,Stoiser's coffe and more,http://www.stoisers.at/
2503804464,15.4456352,47.0592518,Moni's Feinkost & Imbissstube,
2503804465,15.4289045,47.0517215,Monte Cito,
2503804466,15.4290386,47.0517430,Palermo,
2503804468,15.4452895,47.0681642,Ankara Grillhaus,
2503804470,15.4444557,47.0682806,Zafita,http://www.zafita.at
2503804472,15.4292042,47.0517591,Zur Kist'n,
2513747863,15.4397226,47.0738272,Kirby's,http://kirbysburgers.at/
2513747864,15.4369247,47.0716088,Der Wintergarten,www.erzherzog-johann.com
2513747865,15.4411611,47.0736204,Didi Dorner,
2513747866,15.4407304,47.0621641,Magnolia,
2519241953,15.4421951,47.0655595,Casa Venti,
2522165690,15.4299348,47.0745577,Cheers,
2530416055,15.4319792,47.0662213,Die Erbse international,
2530416082,15.4472761,47.0754090,Sonnenfrosch - das Reformhaus,http://www.sonnenfrosch.at
2530416088,15.4398958,47.0686707,Tischlein Deck Dich,http://www.tischlein.net/
2557727308,15.4214285,47.1037525,De Merin,http://demerin-graz.at/
2564388955,15.4314020,47.0747088,Vulcano,
2566467596,15.4430057,47.0708503,Tranquility Bar,
2566875603,15.4502359,47.0637902,Müller Imbiss,
2568365185,15.4585479,47.0754051,Mur Kebap,
2575108229,15.4415928,47.0656014,s'Biertgartl im Ritterwirt,
2582528822,15.4213851,47.0469185,Gasthaus Hochl,
2603089447,15.4442598,47.0686945,Thalia,http://www.diethalia.com/
2603428177,15.4466738,47.0750466,parks,http://www.parks-graz.at/
2620293592,15.4388970,47.0717239,Pony Lodge,http://www.ponylodge.at/i
2635693029,15.4344357,47.0705135,Speisesaal,
2670517779,15.4565672,47.0857498,Dea,
2672305205,15.4214761,47.1041171,Jugend[Cafe]Andritz,
2672305207,15.4312277,47.0655776,crepe revolutions,
2673805099,15.4195015,47.0717515,Granola,http://www.granola-company.at/
2675565659,15.4426339,47.0696630,Martin Auer (Kindercafe),http://www.martinauer.at
2678404873,15.4567064,47.0841284,Martin Auer,
2678517157,15.4401637,47.0692803,Emilia,https://www.facebook.com/emiliagraz/
2717015396,15.4573306,47.0445115,Las Vegas,http://www.lasvegas-graz.at/
2774008118,15.4337443,47.0718689,Capperi!,
2777421323,15.4564257,47.0372316,Trattoria Veneziana,http://www.trattoria-veneziana.at/
2777505319,15.4466191,47.0752251,Café d’ ART,https://de-de.facebook.com/cafedartGraz
2790205747,15.4525042,47.0721700,Das Wahl Lokal,
2832786403,15.4181587,47.0881994,Cafe Casetta,
2848839883,15.4413893,47.0709559,Konoba Kroatien - Miro & Mira,
2848941256,15.4394095,47.0728004,Loana,
2848941908,15.4422203,47.0709503,Trattoria Gerry,
2856087088,15.4413069,47.0649013,Cafe Martinelli,
2888092836,15.4384434,47.0673526,La Meskla,http://www.lameskla.com/
2896640166,15.4284274,47.0772850,CityClub,
2896654606,15.4313478,47.0747791,Saint Tropez,
2896654607,15.4315122,47.0747699,Der Marktgraf,
2896654608,15.4313057,47.0749398,Schlemmerhauser,
2896756743,15.4313989,47.0742188,Mike's,
2896756744,15.4310467,47.0746318,Die süße Luise,facebook.com/DieSusseLuise
2911732717,15.4604372,47.0680802,Akropolis,
2930097700,15.4422136,47.0709114,Joma Fashion Concept Store,www.jomafashion.at
2930098001,15.4509916,47.0670412,Pizzeria Volta,
2933296101,15.4508357,47.0829362,Allee 11,http://www.allee11.at
2933296165,15.4501730,47.0801603,Rock Keller,www.rock-keller.at
2933412834,15.4389759,47.0709359,Muhr,
2934254100,15.4374579,47.0705964,Leberkas Stadl,
2934256252,15.4434120,47.0666816,Salü,
2934689122,15.4411257,47.0558954,Gasthaus Anita,
2948695104,15.4120068,47.0503983,Gasthaus zur Traube,
2948695361,15.4146405,47.0527940,iN pub,
2958486587,15.4743143,47.0149746,Imbiß zur Holzhüttn,
2967506236,15.4477508,47.0547778,atelier,http://www.roomz-graz.com
2972015642,15.4051309,47.0730566,Pizzeria Dolce Vita,
2972015730,15.3999027,47.0721857,essbar,
2972015731,15.3996255,47.0724118,trinkbar,
2974284009,15.4312950,47.0747842,Nonna,http://www.facebook.com/nonnagraz
2974964140,15.4063772,47.0702482,Barista's,
2980071583,15.4413482,47.0671737,Haltestelle,
2980071585,15.4481469,47.0664442,Jugendtreffpunkt Dietrichskeusch'n,
2989087764,15.4269320,47.0605481,Cappuccino,
2989087765,15.4307073,47.0595412,Club Orhan 1,
2989385112,15.4260821,47.0657562,Palmyra,
2989385126,15.4243660,47.0638319,Pizza Burek,
2990091573,15.4280986,47.0602072,Die 3 Bauern,
2997299968,15.4381114,47.0674866,Brötchenparadies,http://www.broetchenparadies.at
3000520360,15.4240216,47.0849722,Charly´s Treff,www.charlys-treff.com
3002784063,15.4319620,47.0660738,Cuntra la Cultra,
3008508807,15.4328669,47.0735403,Cafe Lotte,
3008508808,15.4406960,47.0706955,Champions Pub and Grill,
3008508809,15.4411423,47.0710248,Graz01,
3017924289,15.4676257,47.0806890,LKH Café Medico,http://www.baeckerei-kern.at/
3018432433,15.4331309,47.0731125,Rangoon Cocktailbar,http://www.rangoon-graz.at/die-cocktailbar-in-graz
3026960756,15.4525660,47.0724518,Athina,
3026960758,15.4375056,47.0693938,Vapiano,http://at.vapiano.com/de/restaurants/vapiano-graz-sparkassenplatz-4/
3028526566,15.4398190,47.0724541,Cosimo,
3028526567,15.4390934,47.0714198,Torona,
3034543155,15.4371492,47.0711152,Mehlschwalbe,
3037799597,15.4370987,47.0718479,Tagescafe Freiblick (Skywalk),http://freiblick.co.at/
3047975626,15.4304847,47.0668690,Akamese König Kebap,
3047975633,15.4302805,47.0668771,Elit Kebab Haus,
3048134037,15.4393903,47.0718981,LUI Aperitivo,
3048174260,15.4000558,47.0222730,Toscana,
3053649651,15.4725645,47.0176343,Valentino,
3070411926,15.4418694,47.0836279,Kreuzschwestern,
3080468806,15.4378451,47.0679508,Piccolino,
3080935514,15.4106682,47.0996976,Murheuriger,
3096409282,15.4266460,47.0601909,Zu den 3 goldenen Kugeln,
3108951529,15.4519708,47.0694090,Kardamom,http://www.kardamom.eu
3117535089,15.4411812,47.0576287,Pinzgauer Stub'n,
3117535100,15.4500367,47.0525614,Europa,
3120487116,15.4385514,47.0689695,Tango,
3120739100,15.4326150,47.0514677,Blackout,
3127764092,15.4442677,47.0700034,Vinothek bei der Oper,
3276436504,15.4556357,47.0377751,In's Pfandl,http://www.inspfandl.at/
3300746828,15.4497472,47.0637617,Gallo d'Oro,
3310190286,15.4405477,47.0711571,Gamlitzer Weinstube,
3310307206,15.4407904,47.0713738,Schubertcafé,
3332217893,15.4580759,47.0465702,nullneun,http://www.nullneun.at/
3357584171,15.4398995,47.0708798,Mau Shi de Wind'n,
3362464663,15.4499371,47.0800314,L'Originale,
3394599976,15.4287297,47.0772678,Adrina Grill,
3406084877,15.4242140,47.1026135,Admiral,
3428488652,15.3957240,47.0577521,BioShop,http://www.bioshopgraz.at/
3448213576,15.4421867,47.0707147,Steak Boutique,http://www.steak-boutique.at
3491232810,15.3816004,47.1037951,Burgtaverne,
3528125785,15.4527654,47.0584521,Cafe Phönix,
3532900151,15.4316846,47.0688204,Burger Factory,http://www.burger-factory.at/
3562211663,15.4426928,47.0648926,Take the Cake,
3578292689,15.4424989,47.0645781,dean&david,https://deananddavid.de
3578415625,15.4115561,47.0662068,Café on Tour,
3579950593,15.4411615,47.0651091,Schönautaverne,
3579990762,15.4219390,47.0737970,Café Helga,
3586787007,15.4430782,47.0645478,Culture Exchange,
3595919129,15.4617630,47.0372370,Nero Kebap  Pizza,
3602947297,15.4162420,47.1011515,Fandl-Hendl,
3602999859,15.4307847,47.1110423,Fandl-Hendl Graz-Rotmoosweg,
3615343928,15.4695910,47.0804761,medicus - café - bar - lounge,http://www.medicus-lounge.at
3615772354,15.4423957,47.0705746,Caliano,
3615772358,15.4089868,47.0905511,Il Hero Gino,
3615772365,15.4206881,47.0715280,Euro Kebab,
3615772372,15.4123485,47.0878833,Salz & Pfeffer,
3671244697,15.4487294,47.0625372,Cafe Golf,
3692884712,15.4400016,47.0701559,Bar Albert,http://www.bar-albert.com
3711663002,15.4025086,47.0702156,Merkur Restaurant,
3714795426,15.4463632,47.0683512,Rossian,http://www.rossian.cc
3732208113,15.4413334,47.0655644,Cafe Silber,http://www.cafe-silber.at/cafesilbersalue/index.htm
3732208156,15.4416030,47.0657794,Stars,
3744712435,15.4444114,47.0818993,Kornati,
3778479484,15.4400605,47.0683763,Mild - Sandwichclub,http://feinkostmild.at/
3794010708,15.4851700,47.0432688,Kupferstadl,http://kupferstadl.at
3804632004,15.4368443,47.0837780,Caritas Cafe Paul,https://www.caritas-steiermark.at
3808825635,15.4401517,47.0740490,Condor,
3823132273,15.4340647,47.0660568,Vina,http://www.vina-restaurant.at/
3828294264,15.4495808,47.0640214,das Müller,
3864022557,15.4384747,47.0709606,Hidis's Wursttempel,
3865640080,15.4457097,47.0667493,Pizzata,
3869374521,15.4206987,47.0711966,Leiner Restaurant,
3869891035,15.4431393,47.0700961,Tergeste,
3877170439,15.4414368,47.0323253,Burger King,http://burgerking.at
3884601212,15.4286465,47.0712169,Conte,
3890369196,15.4432919,47.0807525,Don Camillo,
3907322475,15.4496875,47.0744812,Pizza Bellagio,
3931378157,15.4294280,47.0668641,Kara,
3991941977,15.4470111,47.0683214,Pellini,
3991941978,15.4472331,47.0685220,Schnitzelkönig,
3999272455,15.4789529,47.0203317,Betriebskantine Magna,
3999272456,15.4818665,47.0236741,Betriebskantine Magna,
3999273657,15.4727266,47.0207705,Betriebskantine VG-Nord,
4005527493,15.4400419,47.0707897,Ginko Green House,http://www.restaurant-ginko.at/
4009639675,15.4104181,47.0956884,Tafelzimmer im Wohlfühlhotel,
4036074040,15.4839514,47.0681181,Casa Rustica,http://www.casa-rustica.at/
4036074069,15.4582204,47.0695940,Cafe Schillertreff,
4062689452,15.4440909,47.0541613,,www.davinci-pizza.at
4078445136,15.4267779,47.0687291,Agu Okoye,
4078495096,15.4292766,47.0668455,Anten Sofrasi,
4078495097,15.4311259,47.0668982,Cafe Gries,
4078495098,15.4296877,47.0668607,Cafe Rosselmühl,
4078505531,15.4337698,47.0702942,Secret Garden,
4078505532,15.4325028,47.0711090,by Luis,
4078507629,15.4286110,47.0668645,Istanbul LOKANTASI,
4078507630,15.4314876,47.0669804,Kervan Grill House,
4078509237,15.4338696,47.0692825,Cafe Royal,
4085622493,15.4267659,47.0601574,Beyti,
4111414790,15.4441603,47.0333459,Abu Burger,
4138473893,15.4591085,47.0553154,Lucky's Heuriger,
4147239386,15.4425130,47.0676001,Burger Eck am Jako,www.facebook.com/burgereck
4159737565,15.4412905,47.0665645,Burgerista,http://www.burgerista.com/graz/
4196821901,15.4496066,47.0759846,Das Wieltsch - Harmony Gourmet,
4207174540,15.4876679,47.0848624,Greimel,http://www.kaufhaus-greimel.at/
4242108680,15.4229161,47.0714321,Annen Cafe,
4242108682,15.4227927,47.0714308,Europlay,
4242963022,15.4669068,47.0796166,Pastini,
4256013695,15.4696686,47.0770531,Osteria dei Sensi,
4272989519,15.4494707,47.0449635,Bäckerei Konditorei Arena,
4291611533,15.4399104,47.0734328,Pek Snack,
4293467315,15.4397536,47.0792716,Humboldtkeller,www.humboldtkeller.at
4298812388,15.4419559,47.0695203,Im Hof,
4303206505,15.4385363,47.0659382,Basement,http://basementgraz.wixsite.com/das-wieland-der-club
4307567656,15.4024683,47.0886023,Mr. Chen,
4315325816,15.4479992,47.0621479,Cafe M&R,
4327958521,15.3714946,47.0542786,Tenniscafe,
4327958522,15.3654006,47.0500575,Thorbauer,
4342096393,15.4257225,47.1020882,Pizza Maxxx,
4374698990,15.4522335,47.0650877,Mia & Mason Rooftop,http://www.enjoymiaandmason.com/
4432416579,15.4041168,47.0730831,Ćevabdžinica Hodžić,
4486917766,15.4212251,47.0875641,Austria Sportstüberl,
4497360771,15.4336876,47.0707811,s' Auenbrugger,http://www.auenbrugger.at
4505921727,15.4331441,47.0753888,Repair Cafe Graz,http://www.repaircafe-graz.at/
4549350100,15.4411824,47.0651619,Café ABOL - Die Äthiopische Kaffeezeremonie,https://www.facebook.com/Caf%C3%A9-Abol-671106189711192/
4587217902,15.4070024,47.0742992,Lauras Stüberl,
4592557449,15.4703434,47.0583737,Me Gusta,
4607463753,15.4357228,47.0702372,StadtSchenke,http://www.stadtschenke-graz.at/
4634672328,15.4474570,47.0686778,Veggiezz,https://veggiezz.at
4671670147,15.4550412,47.0642466,Gallier,
4671670148,15.4548515,47.0644583,Gösser Stüberl,
4692972715,15.4359302,47.0702664,Stadtcafe,http://www.stadtcafe-graz.at
4693771971,15.4181316,47.0733686,The italiab,
4711391883,15.4510980,47.0632546,Mr. Chen To Go II,
4759424424,15.4990905,47.0699161,Schlemmerstubn am Lustbühel,
4761589833,15.4293687,47.0711334,Cafe Wolf,
4774415823,15.4078236,47.0736192,Bäckerei Europa,
4774476876,15.4077881,47.0734766,Club Havana Balkan,
4801293169,15.4523550,47.0593835,Hungerstopper,
4857108307,15.4500181,47.0760977,Martin Auer,http://www.martinauer.at/filialen/
4870097436,15.4487582,47.0666252,Pizzaiolo,
4873922499,15.4024353,47.0948831,Martin Auer,
4882934997,15.4558686,47.0777597,Pane & Olio,
4883020918,15.4319898,47.0661202,Griesou,
4942346077,15.4521098,47.0649662,Mensa Cafe,
4997486012,15.4379852,47.0722373,LIU ASIA - Restaurant & Bar,
5010956621,15.4331913,47.0736744,Miles Jazzbar,http://milesjazz.at
5038745603,15.4287226,47.0689118,Bios,
1000000024471438,15.5123100,47.1026565,Schaftalstraße,
1000000024776172,15.4002208,47.1044354,McDonald's,
1000000027683805,15.5117290,47.1019534,Stiftingtalstraße,
1000000033263573,15.4082784,47.0643288,Cafe Impuls,
1000000068894641,15.4540644,47.0604417,Cafe Restaurant Osten,
1000000069305181,15.4529346,47.0593497,Acapulco,
1000000071972146,15.4589390,47.0612393,Gasthaus zum Ganster,
1000000072036072,15.4554561,47.0604618,mo.xx,
1000000082209655,15.4466223,47.0490110,Liebenauer Hof,
1000000082719491,15.4454882,47.0679045,Brandhof,
1000000082748434,15.4925903,47.1073137,Zum Kirchenwirt,
1000000083276804,15.4363795,47.0749090,Starcke Häuschen,www.starcke.at
1000000083276808,15.4396700,47.0782385,Landessportzentrum Steiermark,http://www.lsz-graz.at/
1000000083276814,15.4348091,47.0766340,Sub,http://www.subsubsub.at/
1000000083276826,15.4347561,47.0761541,Taj Mahal,http://www.tajmahal-graz.at/
1000000083276838,15.4365746,47.0762815,Schloßberg Restaurant / Bar,
1000000083714696,15.4305963,47.0455393,McDonald's,
1000000083714707,15.4293630,47.0458389,Hochl,
1000000084127329,15.4164531,47.0376993,Caffee Valentino,
1000000084141243,15.4315688,47.0755542,Immervoll,
1000000084187172,15.4291563,47.0849994,Goldener Fisch,
1000000084573764,15.4678491,47.0789872,Cafe St. Leonhard,
1000000084573789,15.4640993,47.0788380,Cafe Schanzl,
1000000084894842,15.4476553,47.0695961,Eschenlaube,
1000000085511118,15.4636972,47.0781612,Eli,
1000000085580307,15.4576466,47.0400521,Edler & Atzl,
1000000085580333,15.4616323,47.0385357,Pizza-Stadl,
1000000085666893,15.4646180,47.0639551,McDonald's,
1000000085715558,15.3952680,47.0499403,Cooking Wu,
1000000085899371,15.4625913,47.0645424,Attention,http://www.attention-graz.at
1000000086058385,15.3997218,47.0226806,Orthacker-Meyer,http://www.orthacker-meyer.at/
1000000086174302,15.4322445,47.0713302,La Tavernetta,
1000000087936618,15.4483928,47.0554869,McDonald's,
1000000087979332,15.4098507,47.0820355,Pizzaiolo Calamar,http://calamar-graz.at
1000000088015872,15.4466335,47.0662760,Binder,
1000000088048326,15.4312453,47.0745903,Draxlers's Imbiss,
1000000088380019,15.4007103,47.0283013,McDonald's,www.mcdonalds.at
1000000089059443,15.4439080,47.0653695,Masala,www.masala.at
1000000089087127,15.3950137,47.0721245,Rudolf,http://rudolf-brau.com
1000000089166069,15.4284740,47.0755604,Gasthof Gehringer,
1000000090533090,15.4367936,47.0758207,Schloßberg Biergarten,
1000000094337869,15.4046655,47.0747098,Kirchenwirt,
1000000094468634,15.4441778,47.0722973,Cafe Promenade,http://promenade.aiola.at
1000000095659429,15.4289573,47.0887830,Trattoria Osteria Siena,http://www.trattoria-siena.at/
1000000096696947,15.4270339,47.0543056,Fasching's Gasthaus,
1000000103570449,15.4711678,47.0671982,Sternwirt,
1000000106798236,15.4340341,47.0683313,Omas Teekanne,
1000000107793569,15.4091569,47.0698999,Onkel Donald,
1000000108569325,15.4484859,47.0352443,Uwe's Beisl,
1000000109387414,15.4553890,47.0380012,Adi's Heuriger,
1000000118286974,15.3840530,47.0310766,Kehlberghof,
1000000120940572,15.4447565,47.0720108,Kombüse,
1000000121768497,15.4292446,47.0737085,Imbiss Volksgarten,
1000000125225887,15.4249826,47.1126772,Johanneshof,http://www.johanneshof-heuriger.at/
1000000126226582,15.4482039,47.0989727,Stoffbauer,http://www.stoffbauer.com
1000000130072747,15.4294995,47.0807189,Zum Grünen Baum,
1000000130667386,15.4177364,47.0885594,Grazerwirt,
1000000130856095,15.4738838,47.0567751,Wang,
1000000130856129,15.4713010,47.0576087,Cafe Mitterbauer,
1000000132621295,15.4470354,47.0684874,Meltschok Fischspezialitäten,
1000000133531976,15.4442399,47.0739657,Parkhouse,
1000000133532712,15.4557349,47.0923523,Restaurant Baumgartner zum Kaltenbrunn,
1000000134532595,15.4691511,47.0226270,Wasserpalast,
1000000134532769,15.4678286,47.0218251,Pizzeria Forno Antico,http://www.fornoantico.at
1000000137712990,15.4793009,47.0364133,Zur Schiefen Hütte,
1000000138444277,15.4935350,47.0539302,Bergwirt,
1000000138444408,15.4865310,47.0452788,Zur Schmied`n,http://www.schmiedn.at
1000000143909082,15.4760557,47.0525973,Konfuzius,www.konfuzius.at
1000000144777647,15.4299755,47.0326751,bur,
1000000145288265,15.4040658,47.0961331,Zum Stern,http://www.zum-stern.at
1000000145802721,15.3949671,47.0738086,Cafe Pavillon,
1000000154776962,15.4227507,47.0865013,Don Alfredo,www.don-alfredo.at
1000000155188264,15.3740885,47.0551462,Gasthaus Dorrer,
1000000157865617,15.4394845,47.0970769,Kreuzwirt,http://www.kreuzwirt.temmel.at.tf/
1000000159151959,15.4293053,47.0768760,Zum Platzhirsch,
1000000160379083,15.4343755,47.0288648,La Fleur,
1000000160609994,15.4216615,47.0501601,Szetschuan,
1000000161148734,15.4021169,47.0637486,Happy Burger,http://www.happyburgergraz.at/
1000000161333727,15.4088832,47.0825474,Cafe Polanz,
1000000161697760,15.5073812,47.0673296,Rupertistüberl,
1000000164985738,15.4318259,47.0294843,Subway,
1000000165753922,15.3848665,47.0470001,Mostschänke Grießner,http://www.mostschank-griessner.at/
1000000167052700,15.4217164,47.1170875,Cafe Romana,www.cafe-romana.at
1000000169142910,15.4104240,47.0907851,Langensiepen Stüberl,http://www.langensiepenstueberl.at/
1000000172968719,15.4438637,47.0204615,Rudersdorfer Stüberl,
1000000173346312,15.4623009,47.0939000,Wiener Wirt,
1000000175244926,15.4428306,47.0680997,Opern Pavillon,
1000000177387088,15.4332212,47.0498657,Kings,
1000000177520541,15.5110218,47.1013767,Stifting Stübl,
1000000178028247,15.4859779,47.0969580,Roseggerhof,http://www.der-roseggerhof.at
1000000179829481,15.4774572,47.0945560,Häuserl im Wald,
1000000179860441,15.4698653,47.0665153,Sorger,
1000000183961248,15.5026576,47.1136985,Gruberwirt,www.gruberwirt.at
1000000183961423,15.4950770,47.1239916,Sternwirt,
1000000184682947,15.4271572,47.1076368,Zum Heimkehrer,
1000000184758433,15.4233075,47.0971683,Gasthof Pfleger,http://gasthof-pfleger.at
1000000185046133,15.4739549,47.1203888,Buschenschank Pölzer,
1000000185046134,15.4764298,47.1195356,Gasthof Meinhard,
1000000189723000,15.4482434,47.0753658,Babe,http://babe.co.at
1000000194614059,15.4633588,47.1088974,Buschenschank Erart,
1000000199148362,15.3881605,47.0585751,Al Forno,http://pizzeria-alforno-graz.at/
1000000199339595,15.3851475,47.0587471,Große Mauer,
1000000201740828,15.4057279,47.1127496,aiola im Schloss,
1000000201920364,15.4394596,47.0717256,Restaurant Dionysos,
1000000202348329,15.4352969,47.0738432,Midori,
1000000202366142,15.4234793,47.0687221,Cafe Melody,
1000000202366143,15.4237479,47.0696296,Internet Cafe,
1000000202527242,15.4502026,47.0759201,Posaune,
1000000202627729,15.4255248,47.0750697,Thai Way Imbiss,
1000000203211110,15.4281224,47.0758075,Shun Feng,
1000000203777939,15.4117278,47.0408095,Cafe New York,
1000000203922132,15.4427022,47.0685241,Operncafe,http://www.operncafe.at/
1000000204247331,15.4286086,47.0719311,Osaka,
1000000206413801,15.4044121,47.0523013,Hollywood Music Pub,
1000000206413802,15.3935634,47.0507352,Hotel-Restaurant Lindenwirt,
1000000210525613,15.4770341,47.0517077,Pizza Kebap Studio,
1000000212408943,15.4077730,47.0536018,Pizza Presto,
1000000217453601,15.3993847,47.0626638,Cafe Rosso,
1000000218271962,15.4149793,47.0443811,Clock-Tower,
1000000220842088,15.4096124,47.0728962,Brauhaus Graz-Eggenberg,http://www.brauhaus-graz.at/
1000000221771125,15.4047418,47.0750963,Cafe Stub'n,
1000000229034586,15.4369447,47.0617584,Augarten-Buffet,
1000000230057948,15.4268129,47.1037351,Chili,
1000000232041412,15.4220307,47.1033836,Don Camillo,
1000000236013013,15.4226900,47.0503551,Cafe Morgans,
1000000236013023,15.4217575,47.0498699,Pizza Bella,http://www.pizza-bella.at
1000000237011445,15.4009118,47.0408113,Bauernwirt,
1000000238994588,15.4420282,47.0316887,greenrooms Graz,
1000000240921978,15.4148136,47.0473634,Würstel Hannes,
1000000241217200,15.3999967,47.0323243,Knusperhäuschen,
1000000241282336,15.4006896,47.0386250,Neuer Stern,
1000000241431642,15.4010529,47.0402508,Neu-Hart,
1000000242254858,15.4005027,47.0228372,Zur alten Schmiede,
1000000242493812,15.4391258,47.0399092,AMERICAN ROADHOUSE,http://www.americanroadhouse.at/
1000000286028300,15.4311878,47.0742605,Cáfe Bar,
1000000286042008,15.4313537,47.0745259,Cafe Eis Palermo,
1000000290536878,15.4443140,47.0739034,parkhouse,
1000000293906131,15.4363370,47.0716053,Ristorante Paradiso,
1000000308001317,15.4453509,47.0805660,Kaffeehäferl,
1000000373217850,15.4173730,47.0718390,Don Camillo,
1000000373217853,15.4175307,47.0723311,Lavazza,
1000000373217856,15.4171211,47.0721209,McDonald's,
1000000373217867,15.4172632,47.0728501,Spar,
1000000373217869,15.4172581,47.0722517,Sushi Yan,
1000000373217872,15.4173186,47.0720956,subway,
1000000406562310,15.4849784,47.0362770,Ess:Bar CenterOst,
1000000430446890,15.4353612,47.0736992,Villa D’oro,http://villadoro.at/
1000000435208754,15.4412300,47.0766401,Eichkatzl-Stubn,
2000000002203534,15.3852874,47.1097180,Gasthof Schmiedwirt,www.gasthof-pachler.at
